[
    {"name": "WALC - North Entrance Pedestal", "latitude": 40.4282, "longitude": -86.9138, "type": "Outdoor Pedestal"},
    {"name": "WALC - South Entrance Pedestal", "latitude": 40.4278, "longitude": -86.9137, "type": "Outdoor Pedestal"},
    {"name": "Bell Tower West Path", "latitude": 40.4271, "longitude": -86.9139, "type": "Outdoor Pedestal"},
    {"name": "Bell Tower East Path", "latitude": 40.4272, "longitude": -86.9135, "type": "Outdoor Pedestal"},
    {"name": "Potter Center North Path", "latitude": 40.4275, "longitude": -86.9121, "type": "Outdoor Pedestal"},
    {"name": "CL50 Main Entrance", "latitude": 40.4265, "longitude": -86.9129, "type": "Outdoor Pedestal"},
    {"name": "Elliott Hall Front Lawn", "latitude": 40.4289, "longitude": -86.9148, "type": "Outdoor Pedestal"},
    {"name": "Hovde Hall North Path", "latitude": 40.4282, "longitude": -86.9144, "type": "Outdoor Pedestal"},
    {"name": "MSEE Entrance Path", "latitude": 40.4293, "longitude": -86.9128, "type": "Outdoor Pedestal"},
    {"name": "Armstrong - Stadium Mall", "latitude": 40.4308, "longitude": -86.9145, "type": "Outdoor Pedestal"},
    {"name": "Earhart Dining - Main Entrance", "latitude": 40.425500, "longitude": -86.924800, "type": "Pedestal"},
    {"name": "Shreve Hall - North Bus Stop", "latitude": 40.424300, "longitude": -86.923500, "type": "Pedestal"},
    {"name": "Meredith Hall - South Pathway", "latitude": 40.424800, "longitude": -86.921500, "type": "Pedestal"},
    {"name": "Third Street Suites - Courtyard", "latitude": 40.426100, "longitude": -86.921000, "type": "Pedestal"},
    {"name": "Wiley Dining - South Path", "latitude": 40.428200, "longitude": -86.919500, "type": "Pedestal"},
    {"name": "Ross-Ade Stadium - Gate G", "latitude": 40.435800, "longitude": -86.918500, "type": "Pedestal"},
    {"name": "Mackey Arena - North Entrance", "latitude": 40.434200, "longitude": -86.917500, "type": "Pedestal"},
    {"name": "Co-Rec (CREC) - Main Entry", "latitude": 40.429500, "longitude": -86.921800, "type": "Pedestal"},
    {"name": "Armstrong Hall - East Plaza", "latitude": 40.430800, "longitude": -86.914500, "type": "Pedestal"},
    {"name": "PMU - Grant Street Entrance", "latitude": 40.4243, "longitude": -86.9103, "type": "Pedestal"},
    {"name": "Krannert Building - West Plaza", "latitude": 40.4238, "longitude": -86.9108, "type": "Pedestal"},
    {"name": "Rawls Hall - North Path", "latitude": 40.4232, "longitude": -86.9105, "type": "Pedestal"},
    {"name": "Hawkins Hall - Courtyard", "latitude": 40.4228, "longitude": -86.9088, "type": "Pedestal"},
    {"name": "Young Hall - West Entrance", "latitude": 40.4231, "longitude": -86.9118, "type": "Pedestal"},
    {"name": "Marsteller Street - Discovery Park North", "latitude": 40.4215, "longitude": -86.9168, "type": "Pedestal"},
    {"name": "Dauch Alumni Center - Main Entrance", "latitude": 40.4208, "longitude": -86.9172, "type": "Pedestal"},
    {"name": "Drug Discovery Building - West Entrance", "latitude": 40.4212, "longitude": -86.9205, "type": "Pedestal"},
    {"name": "Bindley Bioscience - North Path", "latitude": 40.4205, "longitude": -86.9218, "type": "Pedestal"},
    {"name": "Harrison Hall - East Pedestrian Path", "latitude": 40.4235, "longitude": -86.9275, "type": "Pedestal"},
    {"name": "McCutcheon Hall - North Entrance", "latitude": 40.4230, "longitude": -86.9288, "type": "Pedestal"},
    {"name": "Hillenbrand Hall - Courtyard", "latitude": 40.4252, "longitude": -86.9268, "type": "Pedestal"},
    {"name": "Honors College - South Entrance", "latitude": 40.4265, "longitude": -86.9202, "type": "Pedestal"},
    {"name": "Cary Quad - West Path", "latitude": 40.4315, "longitude": -86.9188, "type": "Pedestal"},
    {"name": "Slayter Hill - Bottom Path", "latitude": 40.4312, "longitude": -86.9225, "type": "Pedestal"},
    {"name": "Lilly Hall - West Side", "latitude": 40.4271, "longitude": -86.9175, "type": "Pedestal"},
    {"name": "Smith Hall - North Entrance", "latitude": 40.4268, "longitude": -86.9168, "type": "Pedestal"},
    {"name": "Grissom Hall - South Entrance", "latitude": 40.4285, "longitude": -86.9112, "type": "Pedestal"},
    {"name": "Hicks Underground Library - Entrance", "latitude": 40.4248, "longitude": -86.9125, "type": "Pedestal"},
    {"name": "Physics Building - West Path", "latitude": 40.4302, "longitude": -86.9138, "type": "Pedestal"}
]